#
# Header Description:
#
# Version: v2.0.0.1 Platform: 9 Manufacturer: samsung Model: SM-G960F
#
# Raw,ElapsedRealtimeMillis,TimeNanos,LeapSecond,TimeUncertaintyNanos,FullBiasNanos,BiasNanos,BiasUncertaintyNanos,DriftNanosPerSecond,DriftUncertaintyNanosPerSecond,HardwareClockDiscontinuityCount,Svid,TimeOffsetNanos,State,ReceivedSvTimeNanos,ReceivedSvTimeUncertaintyNanos,Cn0DbHz,PseudorangeRateMetersPerSecond,PseudorangeRateUncertaintyMetersPerSecond,AccumulatedDeltaRangeState,AccumulatedDeltaRangeMeters,AccumulatedDeltaRangeUncertaintyMeters,CarrierFrequencyHz,CarrierCycles,CarrierPhase,CarrierPhaseUncertainty,MultipathIndicator,SnrInDb,ConstellationType,AgcDb,CarrierFrequencyHz
#
# Fix,Provider,Latitude,Longitude,Altitude,Speed,Accuracy,(UTC)TimeInMs
#
# Nav,Svid,Type,Status,MessageId,Sub-messageId,Data(Bytes)
#
NMEA,$GPGGA,093640.00,4122.298381,N,00207.816902,E,1,10,1.6,19.3,M,50.6,M,,*57
,1584783399729
NMEA,$PGLOR,9,STA,093640.00,0.003,0.000,-300,1,16,0,P,F,L,0,C,2,S,00100002,0,5,R,000833F4,TPEF,32,169779,LC,,,*6C
,1584783399729
NMEA,$GPGSV,3,1,11,15,81,198,21,13,54,124,14,24,49,290,24,28,29,046,29*7A
,1584783399730
NMEA,$GPGSV,3,2,11,17,29,086,26,20,26,292,15,19,25,114,,12,24,212,*7B
,1584783399730
NMEA,$GPGSV,3,3,11,10,12,321,15,30,02,081,,05,02,180,*49
,1584783399730
NMEA,$GLGSV,2,1,08,77,57,276,18,67,57,307,20,66,55,185,16,76,50,029,27*62
,1584783399730
NMEA,$GLGSV,2,2,08,85,12,043,20,75,06,052,15,68,10,332,,86,08,095,*66
,1584783399730
Fix,gps,41.371640,2.130282,69.921065,0.000000,16.000000,1584783400000
Raw,45133832,169779000000,,,-1268818448221092136,0.0,37.073946521225984,,,0,5,0.0,16,14401107,1000000000,12.0,576.449879328336,2.99792458E8,20,60627.95670426331,3.4028234663852886E38,1.57542003E9,,,,0,,1,33.008399963378906,1.57542003E9
Raw,45133832,169779000000,,,-1268818448221092136,0.0,37.073946521225984,,,0,10,0.0,16,18033045,1000000000,14.076814651489258,-531.5223169750543,2.99792458E8,20,-56276.01171563974,3.4028234663852886E38,1.57542003E9,,,,0,,1,33.008399963378906,1.57542003E9
Raw,45133832,169779000000,,,-1268818448221092136,0.0,37.073946521225984,,,0,12,0.0,16,2746551,1000000000,12.0,-785.6801713043037,2.99792458E8,20,-87320.40039476719,3.4028234663852886E38,1.57542003E9,,,,1,,1,33.008399963378906,1.57542003E9
Raw,45133832,169779000000,,,-1268818448221092136,0.0,37.073946521225984,,,0,13,0.0,16,9600309,1000000000,12.295120239257812,297.4146605813264,2.99792458E8,20,45158.07044956437,3.4028234663852886E38,1.57542003E9,,,,1,,1,33.008399963378906,1.57542003E9
Raw,45133833,169779000000,,,-1268818448221092136,0.0,37.073946521225984,,,0,15,0.0,39,3932417336,85,21.021129608154297,37.301173894675145,1.230432463869092,20,3317.308451330663,3.4028234663852886E38,1.57542003E9,,,,1,,1,33.008399963378906,1.57542003E9
Raw,45133833,169779000000,,,-1268818448221092136,0.0,37.073946521225984,,,0,17,0.0,16431,553017923226657,60,25.255264282226562,-255.29550968675255,1.0383750921038417,20,-40850.766359192,3.4028234663852886E38,1.57542003E9,,,,0,,1,33.008399963378906,1.57542003E9
Raw,45133833,169779000000,,,-1268818448221092136,0.0,37.073946521225984,,,0,19,0.0,16,2712323,1000000000,12.0,-581.2771139754877,2.99792458E8,20,-91202.34004791753,3.4028234663852886E38,1.57542003E9,,,,1,,1,33.008399963378906,1.57542003E9
Raw,45133833,169779000000,,,-1268818448221092136,0.0,37.073946521225984,,,0,20,0.0,16,3775994,1000000000,12.870214462280273,-141.83839460612666,2.99792458E8,20,-15542.355953409407,3.4028234663852886E38,1.57542003E9,,,,0,,1,33.008399963378906,1.57542003E9
Raw,45133833,169779000000,,,-1268818448221092136,0.0,37.073946521225984,,,0,24,0.0,16431,553017929464146,85,21.021778106689453,-425.85807889284183,1.2298721003554025,20,-70808.25927436627,3.4028234663852886E38,1.57542003E9,,,,0,,1,33.008399963378906,1.57542003E9
Raw,45133834,169779000000,,,-1268818448221092136,0.0,37.073946521225984,,,0,28,0.0,16431,553017922699284,46,28.482364654541016,467.68170485865267,0.01147363893687725,17,66412.70838891147,0.10088365586762106,1.57542003E9,,,,0,,1,33.008399963378906,1.57542003E9
Raw,45133834,169779000000,,,-1268818448221092136,0.0,37.073946521225984,,,0,30,0.0,16,14918137,1000000000,12.0,467.47204257560634,2.99792458E8,20,49062.42179183239,3.4028234663852886E38,1.57542003E9,,,,1,,1,33.008399963378906,1.57542003E9
Raw,45133834,169779000000,,,-1268818448221092136,0.0,37.073946521225984,,,0,2,0.0,16,13817079,1000000000,13.811166763305664,406.4868034912547,2.99792458E8,20,41898.36050781278,3.4028234663852886E38,1.59975002E9,,,,1,,3,46.502803802490234,1.59975002E9
Raw,45133834,169779000000,,,-1268818448221092136,0.0,37.073946521225984,,,0,13,0.0,16,13581626,1000000000,16.833786010742188,-310.3006239083836,2.99792458E8,20,-38609.5247109345,3.4028234663852886E38,1.60087501E9,,,,1,,3,46.502803802490234,1.60087501E9
Raw,45133835,169779000000,,,-1268818448221092136,0.0,37.073946521225984,,,0,12,0.0,32995,45399932479365,119,25.395565032958984,331.76135838955815,1.0337302257585446,20,52701.99122260188,3.4028234663852886E38,1.60143744E9,,,,0,,3,46.502803802490234,1.60143744E9
Raw,45133835,169779000000,,,-1268818448221092136,0.0,37.073946521225984,,,0,11,0.0,16,19913573,1000000000,14.185522079467773,571.9865089870218,2.99792458E8,20,84610.73419821143,3.4028234663852886E38,1.602E9,,,,1,,3,46.502803802490234,1.602E9
Raw,45133835,169779000000,,,-1268818448221092136,0.0,37.073946521225984,,,0,21,0.0,17,790031,204,18.752294540405273,-198.98070890831946,1.3305476828859106,20,-21666.557981578637,3.4028234663852886E38,1.60424998E9,,,,0,,3,46.502803802490234,1.60424998E9
Raw,45133835,169779000000,,,-1268818448221092136,0.0,37.073946521225984,,,0,3,0.0,99,1933585824,196,19.264759063720703,-393.9791895140572,1.3096246492149914,20,-63056.68695500128,3.4028234663852886E38,1.60481254E9,,,,0,,3,46.502803802490234,1.60481254E9
Raw,45133835,169779000000,,,-1268818448221092136,0.0,37.073946521225984,,,0,5,0.0,16,2404930,1000000000,12.0,-95.92466489397157,2.99792458E8,20,-9827.613724053137,3.4028234663852886E38,1.56109798E9,,,,1,,5,49.67959976196289,1.56109798E9
Raw,45133836,169779000000,,,-1268818448221092136,0.0,37.073946521225984,,,0,10,0.0,16,3438124,1000000000,12.0,89.44673167127883,2.99792458E8,20,9153.51709618441,3.4028234663852886E38,1.56109798E9,,,,1,,5,49.67959976196289,1.56109798E9
Raw,45133836,169779000000,,,-1268818448221092136,0.0,37.073946521225984,,,0,12,0.0,16,12689269,1000000000,12.0,-14.612413357450457,2.99792458E8,20,-1994.747824215621,3.4028234663852886E38,1.56109798E9,,,,1,,5,49.67959976196289,1.56109798E9
Raw,45133836,169779000000,,,-1268818448221092136,0.0,37.073946521225984,,,0,20,0.0,17,604342,32,24.52973175048828,-452.1669746494731,1.0737675264819497,20,-47472.13709519032,3.4028234663852886E38,1.56109798E9,,,,0,,5,49.67959976196289,1.56109798E9
Raw,45133836,169779000000,,,-1268818448221092136,0.0,37.073946521225984,,,0,23,0.0,16,6824706,1000000000,12.0,-13.862992327275407,2.99792458E8,20,-201.20864863422773,3.4028234663852886E38,1.56109798E9,,,,0,,5,49.67959976196289,1.56109798E9
Raw,45133836,169779000000,,,-1268818448221092136,0.0,37.073946521225984,,,0,25,0.0,16397,553003918925831,30,25.299976348876953,369.76152512475255,1.0391882782149406,20,48711.377346504945,3.4028234663852886E38,1.56109798E9,,,,0,,5,49.67959976196289,1.56109798E9
Raw,45133836,169779000000,,,-1268818448221092136,0.0,37.073946521225984,,,0,1,0.0,19490,553017908734078,64,24.45949935913086,410.1864541468058,1.0744308030381866,20,55722.14740799207,3.4028234663852886E38,1.57542003E9,,,,1,,6,33.008399963378906,1.57542003E9
Raw,45133837,169779000000,,,-1268818448221092136,0.0,37.073946521225984,,,0,4,0.0,18432,553017910854699,1000000000,13.984665870666504,455.9849936765279,2.99792458E8,20,46296.57458273509,3.4028234663852886E38,1.57542003E9,,,,1,,6,33.008399963378906,1.57542003E9
Raw,45133837,169779000000,,,-1268818448221092136,0.0,37.073946521225984,,,0,5,0.0,18432,553017917216397,1000000000,16.495708465576172,-419.95271389850404,2.99792458E8,20,-43286.33610309761,3.4028234663852886E38,1.57542003E9,,,,1,,6,33.008399963378906,1.57542003E9
Raw,45133837,169779000000,,,-1268818448221092136,0.0,37.073946521225984,,,0,9,0.0,18432,553017927822836,1000000000,15.422796249389648,95.99588018687598,2.99792458E8,20,9348.72065712024,3.4028234663852886E38,1.57542003E9,,,,1,,6,33.008399963378906,1.57542003E9
Raw,45133838,169779000000,,,-1268818448221092136,0.0,37.073946521225984,,,0,25,0.0,18432,553017904565493,1000000000,12.0,-601.8845259927007,2.99792458E8,20,-61528.470594279286,3.4028234663852886E38,1.57542003E9,,,,0,,6,33.008399963378906,1.57542003E9
Raw,45133838,169779000000,,,-1268818448221092136,0.0,37.073946521225984,,,0,31,0.0,18432,553017921031786,1000000000,12.187549591064453,103.17039065598192,2.99792458E8,20,10243.648496803627,3.4028234663852886E38,1.57542003E9,,,,0,,6,33.008399963378906,1.57542003E9
NMEA,$BDGSV,2,1,06,223,76,003,,220,31,309,25,225,30,062,26,205,15,115,*63
,1584783399731
NMEA,$BDGSV,2,2,06,210,09,047,,212,08,040,*6A
,1584783399731
NMEA,$GAGSV,2,1,08,109,71,189,16,131,69,042,13,105,46,307,18,104,22,149,15*64
,1584783399731
NMEA,$GAGSV,2,2,08,101,17,050,26,125,04,232,,126,00,055,,124,54,236,*62
,1584783399731
NMEA,$GPGSA,A,3,15,17,24,28,,,,,,,,,3.0,1.9,2.4*31
,1584783399731
NMEA,$GNGSA,A,3,15,17,24,28,,,,,,,,,3.0,1.9,2.4*2F
,1584783399731
NMEA,$GNGSA,A,3,67,76,85,,,,,,,,,,3.0,1.9,2.4*2C
,1584783399731
NMEA,$QZGSA,A,3,,,,,,,,,,,,,3.0,1.9,2.4*23
,1584783399731
NMEA,$IMGSA,A,3,,,,,,,,,,,,,3.0,1.9,2.4*2C
,1584783399731
NMEA,$BDGSA,A,3,220,225,,,,,,,,,,,3.0,1.9,2.4*2B
,1584783399731
NMEA,$GAGSA,A,3,101,,,,,,,,,,,,3.0,1.9,2.4*1E
,1584783399731
NMEA,$GPRMC,093640.00,A,4122.298381,N,00207.816902,E,000.0,,210320,,,A*77
,1584783399731
NMEA,$GPGGA,093641.00,4122.298381,N,00207.816902,E,1,11,2.4,19.1,M,50.6,M,,*54
,1584783400728
NMEA,$PGLOR,9,STA,093641.00,0.003,0.000,-300,1,24,0,P,F,L,0,C,2,S,00100002,0,5,R,000833F4,TPEF,32,170779,LC,,,*64
,1584783400729
NMEA,$GPGSV,3,1,11,15,81,198,21,13,54,124,14,24,49,290,24,28,29,046,29*7A
,1584783400730
NMEA,$GPGSV,3,2,11,17,29,086,26,20,26,292,15,19,25,114,,12,24,212,*7B
,1584783400731
NMEA,$GPGSV,3,3,11,10,12,321,15,30,02,081,,05,02,180,*49
,1584783400731
NMEA,$GLGSV,2,1,08,77,57,276,18,67,57,307,20,66,55,185,15,76,50,029,27*61
,1584783400731
NMEA,$GLGSV,2,2,08,85,12,043,20,75,06,052,15,68,10,332,,86,08,095,*66
,1584783400731
NMEA,$BDGSV,2,1,06,223,76,003,,220,31,309,25,225,30,062,26,205,15,115,*63
,1584783400731
NMEA,$BDGSV,2,2,06,210,09,047,18,212,08,040,14*66
,1584783400731
NMEA,$GAGSV,2,1,08,109,71,189,16,131,69,042,13,105,46,307,18,104,22,149,15*64
,1584783400731
NMEA,$GAGSV,2,2,08,101,17,050,26,125,04,232,,126,00,055,,124,54,236,*62
,1584783400731
Raw,45134862,170779000000,,,-1268818448221092437,0.0,37.33785819253859,,,0,5,0.0,16,14399183,1000000000,12.0,576.449879328336,2.99792458E8,20,61204.27093341213,3.4028234663852886E38,1.57542003E9,,,,1,,1,31.862491607666016,1.57542003E9
Raw,45134862,170779000000,,,-1268818448221092437,0.0,37.33785819253859,,,0,10,0.0,16,18034930,1000000000,13.216609954833984,-531.3366698343746,2.99792458E8,20,-56807.31216974911,3.4028234663852886E38,1.57542003E9,,,,1,,1,31.862491607666016,1.57542003E9
Raw,45134863,170779000000,,,-1268818448221092437,0.0,37.33785819253859,,,0,12,0.0,16,2749170,1000000000,12.0,-785.6801713043037,2.99792458E8,20,-88105.5369625277,3.4028234663852886E38,1.57542003E9,,,,1,,1,31.862491607666016,1.57542003E9
Raw,45134863,170779000000,,,-1268818448221092437,0.0,37.33785819253859,,,0,13,0.0,16,9599317,1000000000,12.227972030639648,297.4146605813264,2.99792458E8,20,45455.48495091528,3.4028234663852886E38,1.57542003E9,,,,1,,1,31.862491607666016,1.57542003E9
Raw,45134864,170779000000,,,-1268818448221092437,0.0,37.33785819253859,,,0,15,0.0,39,4932417190,86,20.827272415161133,37.52853370183175,1.2391499840669713,20,3354.096153809435,3.4028234663852886E38,1.57542003E9,,,,1,,1,31.862491607666016,1.57542003E9
Raw,45134864,170779000000,,,-1268818448221092437,0.0,37.33785819253859,,,0,17,0.0,16431,553018923227497,60,25.95052719116211,-255.52190240420532,299.7930366448577,20,-41106.105001332435,3.4028234663852886E38,1.57542003E9,,,,0,,1,31.862491607666016,1.57542003E9
Raw,45134864,170779000000,,,-1268818448221092437,0.0,37.33785819253859,,,0,19,0.0,16,2714263,1000000000,12.0,-581.2771139754877,2.99792458E8,20,-91783.6174588525,3.4028234663852886E38,1.57542003E9,,,,1,,1,31.862491607666016,1.57542003E9
Raw,45134865,170779000000,,,-1268818448221092437,0.0,37.33785819253859,,,0,20,0.0,16,3776463,1000000000,12.712200164794922,-141.6527474654469,2.99792458E8,20,-15683.90408824344,3.4028234663852886E38,1.57542003E9,,,,0,,1,31.862491607666016,1.57542003E9
Raw,45134865,170779000000,,,-1268818448221092437,0.0,37.33785819253859,,,0,24,0.0,16431,553018929465555,86,20.75257110595703,-425.312248351629,1.2419784285545772,20,-71233.68636171609,3.4028234663852886E38,1.57542003E9,,,,1,,1,31.862491607666016,1.57542003E9
Raw,45134865,170779000000,,,-1268818448221092437,0.0,37.33785819253859,,,0,28,0.0,16431,553018922697710,44,29.154064178466797,467.7186973134619,0.8629552845055546,20,66880.37713719542,3.4028234663852886E38,1.57542003E9,,,,0,,1,31.862491607666016,1.57542003E9
Raw,45134866,170779000000,,,-1268818448221092437,0.0,37.33785819253859,,,0,30,0.0,16,14916624,1000000000,12.0,467.47204257560634,2.99792458E8,20,49529.26205016177,3.4028234663852886E38,1.57542003E9,,,,1,,1,31.862491607666016,1.57542003E9
Raw,45134866,170779000000,,,-1268818448221092437,0.0,37.33785819253859,,,0,2,0.0,16,13815725,1000000000,12.950920104980469,406.57814447473584,2.99792458E8,20,42304.95110279529,3.4028234663852886E38,1.59975002E9,,,,0,,3,45.61627197265625,1.59975002E9
Raw,45134866,170779000000,,,-1268818448221092437,0.0,37.33785819253859,,,0,13,0.0,16,13582665,1000000000,16.953222274780273,-310.45995939262775,2.99792458E8,20,-38919.91721053404,3.4028234663852886E38,1.60087501E9,,,,1,,3,45.61627197265625,1.60087501E9
Raw,45134867,170779000000,,,-1268818448221092437,0.0,37.33785819253859,,,0,12,0.0,32995,45400932478141,117,25.611175537109375,331.90869684910626,1.024034365983486,20,53034.6175942017,3.4028234663852886E38,1.60143744E9,,,,0,,3,45.61627197265625,1.60143744E9
Raw,45134867,170779000000,,,-1268818448221092437,0.0,37.33785819253859,,,0,11,0.0,16,19911670,1000000000,14.188068389892578,571.9865089870218,2.99792458E8,20,85182.53810369442,3.4028234663852886E38,1.602E9,,,,1,,3,45.61627197265625,1.602E9
Raw,45134867,170779000000,,,-1268818448221092437,0.0,37.33785819253859,,,0,21,0.0,17,790667,199,19.01717758178711,-198.53306992434887,1.3186363968695716,20,-21864.860291708403,3.4028234663852886E38,1.60424998E9,,,,0,,3,45.61627197265625,1.60424998E9
Raw,45134868,170779000000,,,-1268818448221092437,0.0,37.33785819253859,,,0,3,0.0,99,933587124,208,18.518482208251953,-394.0488199727333,1.3431840199109342,20,-63450.42004892205,3.4028234663852886E38,1.60481254E9,,,,0,,3,45.61627197265625,1.60481254E9
Raw,45134868,170779000000,,,-1268818448221092437,0.0,37.33785819253859,,,0,5,0.0,16,2405251,1000000000,12.0,-95.92466489397157,2.99792458E8,20,-9923.538388483239,3.4028234663852886E38,1.56109798E9,,,,1,,5,51.483131408691406,1.56109798E9
Raw,45134868,170779000000,,,-1268818448221092437,0.0,37.33785819253859,,,0,10,0.0,16,3437867,1000000000,18.41608428955078,89.04850372865218,2.99792458E8,20,9243.04719875372,3.4028234663852886E38,1.56109798E9,,,,1,,5,51.483131408691406,1.56109798E9
Raw,45134868,170779000000,,,-1268818448221092437,0.0,37.33785819253859,,,0,12,0.0,16,12689317,1000000000,13.872821807861328,-14.612413357450457,2.99792458E8,20,-2008.3736856718124,3.4028234663852886E38,1.56109798E9,,,,1,,5,51.483131408691406,1.56109798E9
Raw,45134869,170779000000,,,-1268818448221092437,0.0,37.33785819253859,,,0,20,0.0,17,605845,34,23.695993423461914,-451.9507555452924,1.1112600259740844,20,-47924.083445603,3.4028234663852886E38,1.56109798E9,,,,0,,5,51.483131408691406,1.56109798E9
Raw,45134869,170779000000,,,-1268818448221092437,0.0,37.33785819253859,,,0,23,0.0,16,6824752,1000000000,12.0,-13.862992327275407,2.99792458E8,20,-215.07164010112237,3.4028234663852886E38,1.56109798E9,,,,1,,5,51.483131408691406,1.56109798E9
Raw,45134869,170779000000,,,-1268818448221092437,0.0,37.33785819253859,,,0,25,0.0,16397,553004918924598,28,25.95843505859375,367.84527308921406,1.0095778127647912,20,49079.989329193915,3.4028234663852886E38,1.56109798E9,,,,0,,5,51.483131408691406,1.56109798E9
Raw,45134870,170779000000,,,-1268818448221092437,0.0,37.33785819253859,,,0,1,0.0,19490,553018908732707,70,23.4163875579834,410.1524057727395,1.1213381151736623,20,56132.302344780604,3.4028234663852886E38,1.57542003E9,,,,1,,6,31.862491607666016,1.57542003E9
Raw,45134870,170779000000,,,-1268818448221092437,0.0,37.33785819253859,,,0,4,0.0,18432,553018910853179,1000000000,14.534520149230957,455.97238316761445,2.99792458E8,20,46752.29432512662,3.4028234663852886E38,1.57542003E9,,,,1,,6,31.862491607666016,1.57542003E9
Raw,45134871,170779000000,,,-1268818448221092437,0.0,37.33785819253859,,,0,5,0.0,18432,553018917217855,1000000000,16.425861358642578,-419.90707748922,2.99792458E8,20,-43706.25279301656,3.4028234663852886E38,1.57542003E9,,,,1,,6,31.862491607666016,1.57542003E9
Raw,45134871,170779000000,,,-1268818448221092437,0.0,37.33785819253859,,,0,9,0.0,18432,553018927822515,1000000000,15.351795196533203,96.0129810594363,2.99792458E8,20,9444.635918217591,3.4028234663852886E38,1.57542003E9,,,,1,,6,31.862491607666016,1.57542003E9
Raw,45134871,170779000000,,,-1268818448221092437,0.0,37.33785819253859,,,0,25,0.0,18432,553018904566895,1000000000,12.0,-601.5212070061675,2.99792458E8,20,-62130.72720259886,3.4028234663852886E38,1.57542003E9,,,,1,,6,31.862491607666016,1.57542003E9
Raw,45134871,170779000000,,,-1268818448221092437,0.0,37.33785819253859,,,0,31,0.0,18432,553018921031442,1000000000,12.894519805908203,103.16993906343299,2.99792458E8,20,10347.151846363213,3.4028234663852886E38,1.57542003E9,,,,0,,6,31.862491607666016,1.57542003E9
NMEA,$GPGSA,A,3,15,17,24,28,,,,,,,,,4.7,3.8,2.8*3E
,1584783400732
NMEA,$GNGSA,A,3,15,17,24,28,,,,,,,,,4.7,3.8,2.8*20
,1584783400732
NMEA,$GNGSA,A,3,67,76,85,,,,,,,,,,4.7,3.8,2.8*23
,1584783400732
NMEA,$QZGSA,A,3,,,,,,,,,,,,,4.7,3.8,2.8*2C
,1584783400732
NMEA,$IMGSA,A,3,,,,,,,,,,,,,4.7,3.8,2.8*23
,1584783400732
NMEA,$BDGSA,A,3,210,220,225,,,,,,,,,,4.7,3.8,2.8*17
,1584783400732
NMEA,$GAGSA,A,3,101,,,,,,,,,,,,4.7,3.8,2.8*11
,1584783400732
NMEA,$GPRMC,093641.00,A,4122.298381,N,00207.816902,E,000.0,,210320,,,A*76
,1584783400732
Fix,gps,41.371640,2.130282,69.704607,0.000000,24.000000,1584783401000
NMEA,$GPGGA,093642.00,4122.298381,N,00207.816902,E,1,12,2.4,17.9,M,50.6,M,,*52
,1584783401728
NMEA,$PGLOR,9,STA,093642.00,0.003,0.000,-300,1,24,0,P,F,L,0,C,2,S,00100002,0,5,R,000833F4,TPEF,32,171779,LC,,,*66
,1584783401729
NMEA,$GPGSV,3,1,11,15,81,197,21,13,54,124,,24,49,290,23,28,29,046,29*77
,1584783401730
NMEA,$GPGSV,3,2,11,17,29,086,26,20,26,292,15,19,25,114,,12,24,212,*7B
,1584783401730
NMEA,$GPGSV,3,3,11,10,12,321,14,30,02,081,,05,02,180,*48
,1584783401731
NMEA,$GLGSV,2,1,08,77,57,276,18,67,57,307,20,66,55,185,15,76,50,029,27*61
,1584783401731
NMEA,$GLGSV,2,2,08,85,12,043,19,75,06,052,14,68,10,332,,86,08,094,*6C
,1584783401732
NMEA,$BDGSV,2,1,06,223,76,003,,220,31,309,25,225,30,062,26,205,15,115,*63
,1584783401732
NMEA,$BDGSV,2,2,06,210,09,047,18,212,08,040,*63
,1584783401732
NMEA,$GAGSV,2,1,08,109,71,189,16,131,69,042,13,105,46,307,17,104,22,149,15*6B
,1584783401733
NMEA,$GAGSV,2,2,08,101,17,050,25,125,04,232,,126,00,055,,124,54,236,*61
,1584783401733
NMEA,$GPGSA,A,3,15,17,24,28,,,,,,,,,3.1,1.9,2.5*31
,1584783401734
NMEA,$GNGSA,A,3,15,17,24,28,,,,,,,,,3.1,1.9,2.5*2F
,1584783401734
NMEA,$GNGSA,A,3,67,76,85,,,,,,,,,,3.1,1.9,2.5*2C
,1584783401735
NMEA,$QZGSA,A,3,,,,,,,,,,,,,3.1,1.9,2.5*23
,1584783401735
NMEA,$IMGSA,A,3,,,,,,,,,,,,,3.1,1.9,2.5*2C
,1584783401735
Raw,45135850,171779000000,,,-1268818448221092741,0.0,37.07501219478604,,,0,5,0.0,16,14397262,1000000000,12.0,576.2642662701128,2.99792458E8,20,61780.49484181054,3.4028234663852886E38,1.57542003E9,,,,1,,1,32.19029998779297,1.57542003E9
Raw,45135850,171779000000,,,-1268818448221092741,0.0,37.07501219478604,,,0,10,0.0,16,18036698,1000000000,12.356378555297852,-531.1510226936948,2.99792458E8,20,-57338.199863183145,3.4028234663852886E38,1.57542003E9,,,,0,,1,32.19029998779297,1.57542003E9
Raw,45135851,171779000000,,,-1268818448221092741,0.0,37.07501219478604,,,0,12,0.0,16,2751793,1000000000,12.0,-785.6801713043037,2.99792458E8,20,-88890.37418003171,3.4028234663852886E38,1.57542003E9,,,,1,,1,32.19029998779297,1.57542003E9
Raw,45135851,171779000000,,,-1268818448221092741,0.0,37.07501219478604,,,0,13,0.0,16,9598324,1000000000,12.0,297.4146605813264,2.99792458E8,20,45751.599837947855,3.4028234663852886E38,1.57542003E9,,,,1,,1,32.19029998779297,1.57542003E9
Raw,45135851,171779000000,,,-1268818448221092741,0.0,37.07501219478604,,,0,15,0.0,39,5932417090,86,20.757373809814453,37.69295173240485,1.24229315873903,20,3391.5232296012014,3.4028234663852886E38,1.57542003E9,,,,1,,1,32.19029998779297,1.57542003E9
Raw,45135852,171779000000,,,-1268818448221092741,0.0,37.07501219478604,,,0,17,0.0,16431,553019923228352,56,26.15947914123535,-255.31975935456853,0.9977137895299584,20,-41361.29994144636,3.4028234663852886E38,1.57542003E9,,,,0,,1,32.19029998779297,1.57542003E9
Raw,45135852,171779000000,,,-1268818448221092741,0.0,37.07501219478604,,,0,19,0.0,16,2716203,1000000000,12.0,-581.2771139754877,2.99792458E8,20,-92364.9177378767,3.4028234663852886E38,1.57542003E9,,,,1,,1,32.19029998779297,1.57542003E9
Raw,45135852,171779000000,,,-1268818448221092741,0.0,37.07501219478604,,,0,20,0.0,16,3776936,1000000000,12.166793823242188,-141.46710032476716,2.99792458E8,20,-15825.14838211231,3.4028234663852886E38,1.57542003E9,,,,1,,1,32.19029998779297,1.57542003E9
Raw,45135852,171779000000,,,-1268818448221092741,0.0,37.07501219478604,,,0,24,0.0,16431,553019929466976,84,21.12500762939453,-425.43300249508934,1.2252304958077023,20,-71658.40307804,3.4028234663852886E38,1.57542003E9,,,,0,,1,32.19029998779297,1.57542003E9
Raw,45135853,171779000000,,,-1268818448221092741,0.0,37.07501219478604,,,0,28,0.0,16431,553019922696171,45,28.899686813354492,467.7412258172235,0.874394075841427,20,67348.09656574255,3.4028234663852886E38,1.57542003E9,,,,0,,1,32.19029998779297,1.57542003E9
Raw,45135853,171779000000,,,-1268818448221092741,0.0,37.07501219478604,,,0,30,0.0,16,14914903,1000000000,12.0,467.47204257560634,2.99792458E8,20,49997.40679760773,3.4028234663852886E38,1.57542003E9,,,,1,,1,32.19029998779297,1.57542003E9
Raw,45135853,171779000000,,,-1268818448221092741,0.0,37.07501219478604,,,0,2,0.0,16,13814364,1000000000,12.090763092041016,406.66945137576045,2.99792458E8,20,42711.730215434625,3.4028234663852886E38,1.59975002E9,,,,0,,3,45.841896057128906,1.59975002E9
Raw,45135854,171779000000,,,-1268818448221092741,0.0,37.07501219478604,,,0,13,0.0,16,13583696,1000000000,16.649860382080078,-309.94654126756814,2.99792458E8,20,-39230.26890553304,3.4028234663852886E38,1.60087501E9,,,,1,,3,45.841896057128906,1.60087501E9
Raw,45135854,171779000000,,,-1268818448221092741,0.0,37.07501219478604,,,0,12,0.0,32995,45401932477089,118,25.527935028076172,332.82040256109144,1.0277773120095888,20,53368.03237579421,3.4028234663852886E38,1.60143744E9,,,,0,,3,45.841896057128906,1.60143744E9
Raw,45135854,171779000000,,,-1268818448221092741,0.0,37.07501219478604,,,0,11,0.0,16,19909759,1000000000,13.327861785888672,571.8953043333668,2.99792458E8,20,85754.77831268903,3.4028234663852886E38,1.602E9,,,,1,,3,45.841896057128906,1.602E9
Raw,45135855,171779000000,,,-1268818448221092741,0.0,37.07501219478604,,,0,21,0.0,17,791220,204,18.75687599182129,-198.14447879630404,1.3303419899354116,20,-22062.922124650104,3.4028234663852886E38,1.60424998E9,,,,1,,3,45.841896057128906,1.60424998E9
Raw,45135855,171779000000,,,-1268818448221092741,0.0,37.07501219478604,,,0,3,0.0,99,1933588453,215,18.06494140625,-394.1780265654113,1.3635795743133245,20,-63844.06114415371,3.4028234663852886E38,1.60481254E9,,,,0,,3,45.841896057128906,1.60481254E9
Raw,45135855,171779000000,,,-1268818448221092741,0.0,37.07501219478604,,,0,5,0.0,16,2405573,1000000000,12.0,-95.92466489397157,2.99792458E8,20,-10019.7620919395,3.4028234663852886E38,1.56109798E9,,,,0,,5,51.326629638671875,1.56109798E9
Raw,45135855,171779000000,,,-1268818448221092741,0.0,37.07501219478604,,,0,10,0.0,16,3437586,1000000000,17.6026611328125,89.28731950150751,2.99792458E8,20,9332.578101882391,3.4028234663852886E38,1.56109798E9,,,,0,,5,51.326629638671875,1.56109798E9
Raw,45135856,171779000000,,,-1268818448221092741,0.0,37.07501219478604,,,0,12,0.0,16,12689363,1000000000,12.0,-14.237703374901315,2.99792458E8,20,-2023.2362835060167,3.4028234663852886E38,1.56109798E9,,,,1,,5,51.326629638671875,1.56109798E9
Raw,45135857,171779000000,,,-1268818448221092741,0.0,37.07501219478604,,,0,20,0.0,17,607348,31,24.576244354248047,-452.05065122536075,1.071676447953139,20,-48375.947213216,3.4028234663852886E38,1.56109798E9,,,,0,,5,51.326629638671875,1.56109798E9
Raw,45135857,171779000000,,,-1268818448221092741,0.0,37.07501219478604,,,0,23,0.0,16,6824798,1000000000,12.0,-13.862992327275407,2.99792458E8,20,-228.9346316499019,3.4028234663852886E38,1.56109798E9,,,,1,,5,51.326629638671875,1.56109798E9
Raw,45135857,171779000000,,,-1268818448221092741,0.0,37.07501219478604,,,0,25,0.0,16397,553005918923395,28,25.86365509033203,368.16503469631107,1.0138398505798878,20,49448.6476259984,3.4028234663852886E38,1.56109798E9,,,,0,,5,51.326629638671875,1.56109798E9
Raw,45135858,171779000000,,,-1268818448221092741,0.0,37.07501219478604,,,0,1,0.0,19490,553019908731342,66,24.006725311279297,410.15727956402225,1.0947910102053942,20,56542.460123080935,3.4028234663852886E38,1.57542003E9,,,,1,,6,32.19029998779297,1.57542003E9
Raw,45135858,171779000000,,,-1268818448221092741,0.0,37.07501219478604,,,0,4,0.0,18432,553019910851660,1000000000,14.777120590209961,455.7935866006958,2.99792458E8,20,47208.36127060675,3.4028234663852886E38,1.57542003E9,,,,1,,6,32.19029998779297,1.57542003E9
Raw,45135858,171779000000,,,-1268818448221092741,0.0,37.07501219478604,,,0,5,0.0,18432,553019917219257,1000000000,17.34417724609375,-419.7698956017157,2.99792458E8,20,-44125.89826247824,3.4028234663852886E38,1.57542003E9,,,,1,,6,32.19029998779297,1.57542003E9
Raw,45135858,171779000000,,,-1268818448221092741,0.0,37.07501219478604,,,0,9,0.0,18432,553019927822194,1000000000,14.916631698608398,96.14936200921233,2.99792458E8,20,9540.864991304503,3.4028234663852886E38,1.57542003E9,,,,1,,6,32.19029998779297,1.57542003E9
Raw,45135859,171779000000,,,-1268818448221092741,0.0,37.07501219478604,,,0,25,0.0,18432,553019904569506,1000000000,12.0,-601.6988447695644,2.99792458E8,20,-62732.05399830224,3.4028234663852886E38,1.57542003E9,,,,0,,6,32.19029998779297,1.57542003E9
Raw,45135859,171779000000,,,-1268818448221092741,0.0,37.07501219478604,,,0,31,0.0,18432,553019921031095,1000000000,13.264079093933105,103.23624648259812,2.99792458E8,20,10450.093478722722,3.4028234663852886E38,1.57542003E9,,,,0,,6,32.19029998779297,1.57542003E9
Fix,gps,41.371640,2.130282,68.500899,0.000000,24.000000,1584783402000
NMEA,$BDGSA,A,3,210,220,225,,,,,,,,,,3.1,1.9,2.5*18
,1584783401736
NMEA,$GAGSA,A,3,101,105,,,,,,,,,,,3.1,1.9,2.5*2A
,1584783401736
NMEA,$GPRMC,093642.00,A,4122.298381,N,00207.816902,E,000.0,,210320,,,A*75
,1584783401737
Nav,28,257,1,9,5,34,-64,49,13,45,1,77,-21,18,67,97,101,3,-63,-65,59,63,86,-64,27,40,67,115,24,63,-22,-100,37,18,89,-3,-34,3,-122,-112,3,58,63,-15,-113
Raw,45136844,172779000000,,,-1268818448221093045,0.0,36.94624701757971,,,0,5,0.0,16,14395343,1000000000,12.0,576.2642662701128,2.99792458E8,20,62355.10411869984,3.4028234663852886E38,1.57542003E9,,,,1,,1,30.312210083007812,1.57542003E9
Raw,45136844,172779000000,,,-1268818448221093045,0.0,36.94624701757971,,,0,10,0.0,16,18038470,1000000000,12.17898941040039,-530.9653755530151,2.99792458E8,20,-57869.48524658687,3.4028234663852886E38,1.57542003E9,,,,0,,1,30.312210083007812,1.57542003E9
Raw,45136845,172779000000,,,-1268818448221093045,0.0,36.94624701757971,,,0,12,0.0,16,2754410,1000000000,12.0,-785.4944900811674,2.99792458E8,20,-89676.50218985512,3.4028234663852886E38,1.57542003E9,,,,1,,1,30.312210083007812,1.57542003E9
Raw,45136845,172779000000,,,-1268818448221093045,0.0,36.94624701757971,,,0,13,0.0,16,9597332,1000000000,12.0,297.4146605813264,2.99792458E8,20,46049.96816520053,3.4028234663852886E38,1.57542003E9,,,,1,,1,30.312210083007812,1.57542003E9
Raw,45136845,172779000000,,,-1268818448221093045,0.0,36.94624701757971,,,0,15,0.0,39,932416930,84,21.098926544189453,37.851200838347324,1.2269339529608638,20,3429.2279616151277,3.4028234663852886E38,1.57542003E9,,,,1,,1,30.312210083007812,1.57542003E9
Raw,45136845,172779000000,,,-1268818448221093045,0.0,36.94624701757971,,,0,17,0.0,16431,553020923229186,51,27.29294204711914,-256.6475436957842,0.9467435423673933,20,-41616.4299049029,3.4028234663852886E38,1.57542003E9,,,,0,,1,30.312210083007812,1.57542003E9
Raw,45136846,172779000000,,,-1268818448221093045,0.0,36.94624701757971,,,0,19,0.0,16,2718147,1000000000,12.0,-581.2771139754877,2.99792458E8,20,-92946.47411324251,3.4028234663852886E38,1.57542003E9,,,,1,,1,30.312210083007812,1.57542003E9
Raw,45136846,172779000000,,,-1268818448221093045,0.0,36.94624701757971,,,0,20,0.0,16,3777407,1000000000,12.0,-141.28144466347328,2.99792458E8,20,-15966.621222009444,3.4028234663852886E38,1.57542003E9,,,,0,,1,30.312210083007812,1.57542003E9
Raw,45136846,172779000000,,,-1268818448221093045,0.0,36.94624701757971,,,0,24,0.0,16431,553020929468399,75,22.45796012878418,-426.01410837880326,1.1652894398787632,20,-72083.26461516057,3.4028234663852886E38,1.57542003E9,,,,0,,1,30.312210083007812,1.57542003E9
Raw,45136847,172779000000,,,-1268818448221093045,0.0,36.94624701757971,,,0,28,0.0,16431,553020922694629,47,28.324045181274414,467.67047063748214,0.9002797681377994,20,67815.71162441585,3.4028234663852886E38,1.57542003E9,,,,0,,1,30.312210083007812,1.57542003E9
Raw,45136847,172779000000,,,-1268818448221093045,0.0,36.94624701757971,,,0,30,0.0,16,14913354,1000000000,12.0,467.2863954349266,2.99792458E8,20,50464.544685836605,3.4028234663852886E38,1.57542003E9,,,,1,,1,30.312210083007812,1.57542003E9
Raw,45136847,172779000000,,,-1268818448221093045,0.0,36.94624701757971,,,0,2,0.0,16,13813004,1000000000,12.0,406.7608264416981,2.99792458E8,20,43118.35968075918,3.4028234663852886E38,1.59975002E9,,,,0,,3,47.244232177734375,1.59975002E9
Raw,45136848,172779000000,,,-1268818448221093045,0.0,36.94624701757971,,,0,13,0.0,16,13584935,1000000000,16.154464721679688,-310.6572286509818,2.99792458E8,20,-39540.722451173584,3.4028234663852886E38,1.60087501E9,,,,1,,3,47.244232177734375,1.60087501E9
Raw,45136848,172779000000,,,-1268818448221093045,0.0,36.94624701757971,,,0,12,0.0,32995,45402932475814,105,27.01188087463379,332.0381079365234,0.9610457260222671,20,53700.803011518845,3.4028234663852886E38,1.60143744E9,,,,0,,3,47.244232177734375,1.60143744E9
Raw,45136848,172779000000,,,-1268818448221093045,0.0,36.94624701757971,,,0,11,0.0,16,19907857,1000000000,12.503997802734375,571.8953043333668,2.99792458E8,20,86325.96135042423,3.4028234663852886E38,1.602E9,,,,0,,3,47.244232177734375,1.602E9
Raw,45136848,172779000000,,,-1268818448221093045,0.0,36.94624701757971,,,0,21,0.0,17,791665,192,19.517440795898438,-197.94352863264555,1.2961403779493672,20,-22261.624087423173,3.4028234663852886E38,1.60424998E9,,,,1,,3,47.244232177734375,1.60424998E9
Raw,45136849,172779000000,,,-1268818448221093045,0.0,36.94624701757971,,,0,3,0.0,99,933589857,213,18.18906021118164,-393.47122458204126,1.3579983057885228,20,-64238.181186088084,3.4028234663852886E38,1.60481254E9,,,,0,,3,47.244232177734375,1.60481254E9
Raw,45136849,172779000000,,,-1268818448221093045,0.0,36.94624701757971,,,0,5,0.0,16,2405897,1000000000,12.0,-96.29937594159748,2.99792458E8,20,-10116.137138221173,3.4028234663852886E38,1.56109798E9,,,,0,,5,50.053245544433594,1.56109798E9
Raw,45136849,172779000000,,,-1268818448221093045,0.0,36.94624701757971,,,0,10,0.0,16,3437375,1000000000,14.906837463378906,89.88693215911331,2.99792458E8,20,9421.932977198927,3.4028234663852886E38,1.56109798E9,,,,1,,5,50.053245544433594,1.56109798E9
Raw,45136850,172779000000,,,-1268818448221093045,0.0,36.94624701757971,,,0,12,0.0,16,12689418,1000000000,12.0,-14.237703374901315,2.99792458E8,20,-2038.155524380851,3.4028234663852886E38,1.56109798E9,,,,1,,5,50.053245544433594,1.56109798E9
Raw,45136850,172779000000,,,-1268818448221093045,0.0,36.94624701757971,,,0,20,0.0,17,608863,34,23.659452438354492,-451.93783829427025,1.112903905395629,20,-48827.78102932244,3.4028234663852886E38,1.56109798E9,,,,0,,5,50.053245544433594,1.56109798E9
Raw,45136850,172779000000,,,-1268818448221093045,0.0,36.94624701757971,,,0,23,0.0,16,6824845,1000000000,12.0,-13.862992327275407,2.99792458E8,20,-243.0951764859299,3.4028234663852886E38,1.56109798E9,,,,1,,5,50.053245544433594,1.56109798E9
Raw,45136851,172779000000,,,-1268818448221093045,0.0,36.94624701757971,,,0,25,0.0,16397,553006918922162,30,25.2417049407959,368.6387467595216,1.0418080342236422,20,49817.29546702317,3.4028234663852886E38,1.56109798E9,,,,0,,5,50.053245544433594,1.56109798E9
Raw,45136851,172779000000,,,-1268818448221093045,0.0,36.94624701757971,,,0,1,0.0,19490,553020908729967,67,23.957075119018555,410.14545295160883,1.097023610809532,20,56952.60551396919,3.4028234663852886E38,1.57542003E9,,,,1,,6,30.312210083007812,1.57542003E9
Raw,45136852,172779000000,,,-1268818448221093045,0.0,36.94624701757971,,,0,4,0.0,18432,553020910850140,1000000000,14.713451385498047,455.7690813144559,2.99792458E8,20,47664.00247690316,3.4028234663852886E38,1.57542003E9,,,,0,,6,30.312210083007812,1.57542003E9
Raw,45136852,172779000000,,,-1268818448221093045,0.0,36.94624701757971,,,0,5,0.0,18432,553020917220655,1000000000,16.483970642089844,-419.70946740630075,2.99792458E8,20,-44545.86412071477,3.4028234663852886E38,1.57542003E9,,,,1,,6,30.312210083007812,1.57542003E9
Raw,45136852,172779000000,,,-1268818448221093045,0.0,36.94624701757971,,,0,9,0.0,18432,553020927821870,1000000000,16.338830947875977,96.19001385922991,2.99792458E8,20,9636.619166687047,3.4028234663852886E38,1.57542003E9,,,,1,,6,30.312210083007812,1.57542003E9
Raw,45136853,172779000000,,,-1268818448221093045,0.0,36.94624701757971,,,0,25,0.0,18432,553020904571512,1000000000,12.0,-601.6988447695644,2.99792458E8,20,-63334.04846566376,3.4028234663852886E38,1.57542003E9,,,,0,,6,30.312210083007812,1.57542003E9
Raw,45136853,172779000000,,,-1268818448221093045,0.0,36.94624701757971,,,0,31,0.0,18432,553020921030752,1000000000,13.337859153747559,103.24152926335915,2.99792458E8,20,10552.951359322018,3.4028234663852886E38,1.57542003E9,,,,0,,6,30.312210083007812,1.57542003E9
NMEA,$GPGGA,093643.00,4122.298381,N,00207.816902,E,1,10,2.4,17.2,M,50.6,M,,*5A
,1584783402736
NMEA,$PGLOR,9,STA,093643.00,0.003,0.000,-301,1,24,0,P,F,L,0,C,2,S,00100002,0,5,R,000833F4,TPEF,32,172779,LC,,,*65
,1584783402737
NMEA,$GPGSV,3,1,11,15,81,197,21,13,54,124,,24,49,290,23,28,29,046,29*77
,1584783402738
NMEA,$GPGSV,3,2,11,17,29,086,27,20,26,292,,19,25,114,,12,24,212,*7E
,1584783402739
NMEA,$GPGSV,3,3,11,10,12,321,14,30,02,081,,05,02,180,*48
,1584783402739
NMEA,$GLGSV,2,1,08,77,57,276,17,67,57,307,20,66,55,185,,76,50,029,27*6A
,1584783402739
NMEA,$GLGSV,2,2,08,85,12,043,20,75,06,052,14,68,10,332,,86,08,094,*66
,1584783402740
NMEA,$BDGSV,2,1,06,223,76,003,,220,31,309,25,225,30,062,26,205,15,115,*63
,1584783402740
NMEA,$BDGSV,2,2,06,210,09,047,18,212,08,040,*63
,1584783402740
NMEA,$GAGSV,2,1,08,109,71,189,16,131,69,042,13,105,46,307,17,104,22,149,15*6B
,1584783402741
NMEA,$GAGSV,2,2,08,101,17,050,25,125,04,232,,126,00,055,,124,54,236,*61
,1584783402741
NMEA,$GPGSA,A,3,15,17,24,28,,,,,,,,,4.4,2.6,3.5*3E
,1584783402742
NMEA,$GNGSA,A,3,15,17,24,28,,,,,,,,,4.4,2.6,3.5*20
,1584783402742
NMEA,$GNGSA,A,3,67,76,85,,,,,,,,,,4.4,2.6,3.5*23
,1584783402742
NMEA,$QZGSA,A,3,,,,,,,,,,,,,4.4,2.6,3.5*2C
,1584783402742
NMEA,$IMGSA,A,3,,,,,,,,,,,,,4.4,2.6,3.5*23
,1584783402743
NMEA,$BDGSA,A,3,220,225,,,,,,,,,,,4.4,2.6,3.5*24
,1584783402743
NMEA,$GAGSA,A,3,101,,,,,,,,,,,,4.4,2.6,3.5*11
,1584783402743
NMEA,$GPRMC,093643.00,A,4122.298381,N,00207.816902,E,000.0,,210320,,,A*74
,1584783402743
Fix,gps,41.371640,2.130282,67.816728,0.000000,24.000000,1584783403000
NMEA,$GPGGA,093644.00,4122.298381,N,00207.816902,E,1,10,1.6,17.6,M,50.6,M,,*58
,1584783403734
NMEA,$PGLOR,9,STA,093644.00,0.003,0.000,-301,1,16,0,P,F,L,0,C,2,S,00100002,0,5,R,000833F4,TPEF,32,173779,LC,,,*62
,1584783403736
NMEA,$GPGSV,3,1,11,15,81,197,21,13,54,124,,24,49,290,23,28,29,046,29*77
,1584783403736
NMEA,$GPGSV,3,2,11,17,29,086,27,20,26,292,,19,25,114,,12,24,212,*7E
,1584783403737
NMEA,$GPGSV,3,3,11,10,12,321,,30,02,081,,05,02,180,*4D
,1584783403737
NMEA,$GLGSV,2,1,08,77,57,276,17,67,57,307,19,66,55,185,,76,50,029,27*60
,1584783403737
NMEA,$GLGSV,2,2,08,85,12,043,20,75,06,052,,68,10,332,,86,08,094,*63
,1584783403738
NMEA,$BDGSV,2,1,06,223,76,003,,220,31,309,24,225,30,062,26,205,15,115,*62
,1584783403738
NMEA,$BDGSV,2,2,06,210,09,047,,212,08,040,*6A
,1584783403738
NMEA,$GAGSV,2,1,08,109,71,189,16,131,69,042,13,105,46,307,17,104,22,149,15*6B
,1584783403738
NMEA,$GAGSV,2,2,08,101,17,050,25,125,04,232,,126,00,055,,124,54,236,*61
,1584783403738
NMEA,$GPGSA,A,3,15,17,24,28,,,,,,,,,3.1,1.9,2.5*31
,1584783403738
NMEA,$GNGSA,A,3,15,17,24,28,,,,,,,,,3.1,1.9,2.5*2F
,1584783403738
NMEA,$GNGSA,A,3,67,76,85,,,,,,,,,,3.1,1.9,2.5*2C
,1584783403739
Raw,45137838,173779000000,,,-1268818448221093347,0.0,37.0100283754281,,,0,5,0.0,16,14393421,1000000000,12.0,575.8929719887533,2.99792458E8,20,62932.52969119127,3.4028234663852886E38,1.57542003E9,,,,1,,1,33.93330383300781,1.57542003E9
Raw,45137838,173779000000,,,-1268818448221093347,0.0,37.0100283754281,,,0,10,0.0,16,18040247,1000000000,12.0,-531.3366698343746,2.99792458E8,20,-58401.08515579003,3.4028234663852886E38,1.57542003E9,,,,1,,1,33.93330383300781,1.57542003E9
Raw,45137838,173779000000,,,-1268818448221093347,0.0,37.0100283754281,,,0,12,0.0,16,2757028,1000000000,12.0,-785.8657843625269,2.99792458E8,20,-90462.23214222219,3.4028234663852886E38,1.57542003E9,,,,1,,1,33.93330383300781,1.57542003E9
Raw,45137839,173779000000,,,-1268818448221093347,0.0,37.0100283754281,,,0,13,0.0,16,9596338,1000000000,12.0,297.22901344064667,2.99792458E8,20,46347.456014918745,3.4028234663852886E38,1.57542003E9,,,,1,,1,33.93330383300781,1.57542003E9
Raw,45137839,173779000000,,,-1268818448221093347,0.0,37.0100283754281,,,0,15,0.0,39,1932416822,85,21.00273323059082,37.55778497014245,1.231259629112749,20,3466.8436313251095,3.4028234663852886E38,1.57542003E9,,,,1,,1,33.93330383300781,1.57542003E9
Raw,45137839,173779000000,,,-1268818448221093347,0.0,37.0100283754281,,,0,17,0.0,16431,553021923230042,60,25.334041595458984,-256.08830170792965,1.0348330461827895,20,-41871.43319264855,3.4028234663852886E38,1.57542003E9,,,,0,,1,33.93330383300781,1.57542003E9
Raw,45137840,173779000000,,,-1268818448221093347,0.0,37.0100283754281,,,0,19,0.0,16,2720086,1000000000,12.0,-581.462795198624,2.99792458E8,20,-93527.66404649506,3.4028234663852886E38,1.57542003E9,,,,1,,1,33.93330383300781,1.57542003E9
Raw,45137840,173779000000,,,-1268818448221093347,0.0,37.0100283754281,,,0,20,0.0,16,3777569,1000000000,12.0,-141.46710032476716,2.99792458E8,20,-16108.311016491703,3.4028234663852886E38,1.57542003E9,,,,1,,1,33.93330383300781,1.57542003E9
Raw,45137840,173779000000,,,-1268818448221093347,0.0,37.0100283754281,,,0,24,0.0,16431,553021929469832,80,21.771455764770508,-425.94877230964903,1.1961608230856609,20,-72509.01858196752,3.4028234663852886E38,1.57542003E9,,,,0,,1,33.93330383300781,1.57542003E9
Raw,45137840,173779000000,,,-1268818448221093347,0.0,37.0100283754281,,,0,28,0.0,16431,553021922693067,49,27.706539154052734,468.26623197750087,0.9280479836186739,20,68283.61289038733,3.4028234663852886E38,1.57542003E9,,,,0,,1,33.93330383300781,1.57542003E9
Raw,45137841,173779000000,,,-1268818448221093347,0.0,37.0100283754281,,,0,30,0.0,16,14911799,1000000000,12.0,467.10074829424684,2.99792458E8,20,50931.788788168335,3.4028234663852886E38,1.57542003E9,,,,1,,1,33.93330383300781,1.57542003E9
Raw,45137841,173779000000,,,-1268818448221093347,0.0,37.0100283754281,,,0,2,0.0,16,13811650,1000000000,12.0,406.66945137576045,2.99792458E8,20,43525.28019511,3.4028234663852886E38,1.59975002E9,,,,0,,3,46.79038619995117,1.59975002E9
Raw,45137841,173779000000,,,-1268818448221093347,0.0,37.0100283754281,,,0,13,0.0,16,13585939,1000000000,15.417047500610352,-310.5837809571751,2.99792458E8,20,-39850.79738174339,3.4028234663852886E38,1.60087501E9,,,,1,,3,46.79038619995117,1.60087501E9
Raw,45137841,173779000000,,,-1268818448221093347,0.0,37.0100283754281,,,0,12,0.0,32995,45403932474842,114,25.913047790527344,331.5047174919414,1.0104587643851484,20,54032.870230599314,3.4028234663852886E38,1.60143744E9,,,,0,,3,46.79038619995117,1.60143744E9
Raw,45137842,173779000000,,,-1268818448221093347,0.0,37.0100283754281,,,0,11,0.0,16,19905953,1000000000,12.0,571.5305538836596,2.99792458E8,20,86897.49121418106,3.4028234663852886E38,1.602E9,,,,0,,3,46.79038619995117,1.602E9
Raw,45137843,173779000000,,,-1268818448221093347,0.0,37.0100283754281,,,0,21,0.0,17,792394,180,20.258939743041992,-198.33455665633176,1.262796019625629,20,-22460.355931339836,3.4028234663852886E38,1.60424998E9,,,,1,,3,46.79038619995117,1.60424998E9
Raw,45137843,173779000000,,,-1268818448221093347,0.0,37.0100283754281,,,0,3,0.0,99,1933591163,211,18.33784294128418,-393.8400308440746,1.3513080260807717,20,-64631.778290648785,3.4028234663852886E38,1.60481254E9,,,,1,,3,46.79038619995117,1.60481254E9
Raw,45137843,173779000000,,,-1268818448221093347,0.0,37.0100283754281,,,0,5,0.0,16,2406219,1000000000,12.0,-96.29937594159748,2.99792458E8,20,-10212.137468599947,3.4028234663852886E38,1.56109798E9,,,,0,,5,52.296875,1.56109798E9
Raw,45137843,173779000000,,,-1268818448221093347,0.0,37.0100283754281,,,0,10,0.0,16,3437024,1000000000,12.0,89.18937504207508,2.99792458E8,20,9510.504715205727,3.4028234663852886E38,1.56109798E9,,,,0,,5,52.296875,1.56109798E9
Raw,45137844,173779000000,,,-1268818448221093347,0.0,37.0100283754281,,,0,12,0.0,16,12689471,1000000000,12.0,-14.612413357450457,2.99792458E8,20,-2052.461108887222,3.4028234663852886E38,1.56109798E9,,,,1,,5,52.296875,1.56109798E9
Raw,45137844,173779000000,,,-1268818448221093347,0.0,37.0100283754281,,,0,20,0.0,17,610373,37,22.50799560546875,-451.81875419117955,1.1646838106025044,20,-49279.477144186174,3.4028234663852886E38,1.56109798E9,,,,0,,5,52.296875,1.56109798E9
Raw,45137844,173779000000,,,-1268818448221093347,0.0,37.0100283754281,,,0,23,0.0,16,6824892,1000000000,12.0,-14.237703374901315,2.99792458E8,20,-257.41003538186214,3.4028234663852886E38,1.56109798E9,,,,1,,5,52.296875,1.56109798E9
Raw,45137844,173779000000,,,-1268818448221093347,0.0,37.0100283754281,,,0,25,0.0,16397,553007918920922,30,25.208524703979492,369.9689850376069,1.043299873936792,20,50185.716093736744,3.4028234663852886E38,1.56109798E9,,,,0,,5,52.296875,1.56109798E9
Raw,45137845,173779000000,,,-1268818448221093347,0.0,37.0100283754281,,,0,1,0.0,19490,553021908728606,68,23.712919235229492,410.1621192728485,1.1080026883861338,20,57362.773925770794,3.4028234663852886E38,1.57542003E9,,,,1,,6,33.93330383300781,1.57542003E9
Raw,45137845,173779000000,,,-1268818448221093347,0.0,37.0100283754281,,,0,4,0.0,18432,553021910848620,1000000000,15.077730178833008,455.9573528042879,2.99792458E8,20,48120.132478990476,3.4028234663852886E38,1.57542003E9,,,,0,,6,33.93330383300781,1.57542003E9
Raw,45137845,173779000000,,,-1268818448221093347,0.0,37.0100283754281,,,0,5,0.0,18432,553021917222057,1000000000,16.99661636352539,-420.13277151631405,2.99792458E8,20,-44965.97287077246,3.4028234663852886E38,1.57542003E9,,,,1,,6,33.93330383300781,1.57542003E9
Raw,45137846,173779000000,,,-1268818448221093347,0.0,37.0100283754281,,,0,9,0.0,18432,553021927821496,1000000000,16.311594009399414,95.98088390600594,2.99792458E8,20,9732.811702113588,3.4028234663852886E38,1.57542003E9,,,,1,,6,33.93330383300781,1.57542003E9
Raw,45137846,173779000000,,,-1268818448221093347,0.0,37.0100283754281,,,0,25,0.0,18432,553021904573520,1000000000,12.0,-602.0701390509239,2.99792458E8,20,-63936.1943572496,3.4028234663852886E38,1.57542003E9,,,,0,,6,33.93330383300781,1.57542003E9
Raw,45137846,173779000000,,,-1268818448221093347,0.0,37.0100283754281,,,0,31,0.0,18432,553021921030408,1000000000,13.112062454223633,103.03926692512454,2.99792458E8,20,10656.125109261811,3.4028234663852886E38,1.57542003E9,,,,0,,6,33.93330383300781,1.57542003E9
NMEA,$QZGSA,A,3,,,,,,,,,,,,,3.1,1.9,2.5*23
,1584783403739
NMEA,$IMGSA,A,3,,,,,,,,,,,,,3.1,1.9,2.5*2C
,1584783403739
NMEA,$BDGSA,A,3,220,225,,,,,,,,,,,3.1,1.9,2.5*2B
,1584783403739
NMEA,$GAGSA,A,3,101,,,,,,,,,,,,3.1,1.9,2.5*1E
,1584783403739
NMEA,$GPRMC,093644.00,A,4122.298381,N,00207.816902,E,000.0,,210320,,,A*73
,1584783403739
Fix,gps,41.371640,2.130282,68.213068,0.000000,16.000000,1584783404000
NMEA,$GPGGA,093645.00,4122.298381,N,00207.816902,E,1,11,1.6,17.2,M,50.6,M,,*5C
,1584783404730
NMEA,$PGLOR,9,STA,093645.00,0.003,0.000,-302,2,16,0,P,F,L,0,C,2,S,00100002,0,5,R,000833F4,TPEF,32,174779,LC,,,*64
,1584783404730
Raw,45138862,174779000000,,,-1268818448221093648,0.0,36.73453108290433,,,0,5,0.0,16,14391499,1000000000,12.0,576.2642662701128,2.99792458E8,20,63508.225544176385,3.4028234663852886E38,1.57542003E9,,,,1,,1,33.93330383300781,1.57542003E9
Raw,45138862,174779000000,,,-1268818448221093648,0.0,36.73453108290433,,,0,10,0.0,16,18042018,1000000000,12.0,-531.5223169750543,2.99792458E8,20,-58932.643735549456,3.4028234663852886E38,1.57542003E9,,,,1,,1,33.93330383300781,1.57542003E9
Raw,45138862,174779000000,,,-1268818448221093648,0.0,36.73453108290433,,,0,12,0.0,16,2759650,1000000000,12.0,-785.6801713043037,2.99792458E8,20,-91248.58305360547,3.4028234663852886E38,1.57542003E9,,,,0,,1,33.93330383300781,1.57542003E9
Raw,45138863,174779000000,,,-1268818448221093648,0.0,36.73453108290433,,,0,13,0.0,16,9595346,1000000000,12.0,297.60030772200616,2.99792458E8,20,46644.76572056913,3.4028234663852886E38,1.57542003E9,,,,1,,1,33.93330383300781,1.57542003E9
Raw,45138863,174779000000,,,-1268818448221093648,0.0,36.73453108290433,,,0,15,0.0,39,2932416701,82,21.39166831970215,37.63360991529157,1.2137696041289283,20,3504.301882176384,3.4028234663852886E38,1.57542003E9,,,,1,,1,33.93330383300781,1.57542003E9
Raw,45138863,174779000000,,,-1268818448221093648,0.0,36.73453108290433,,,0,17,0.0,16431,553022923230885,63,24.718242645263672,-254.94302892139365,1.062525042107573,20,-42126.35106935292,3.4028234663852886E38,1.57542003E9,,,,0,,1,33.93330383300781,1.57542003E9
Raw,45138863,174779000000,,,-1268818448221093648,0.0,36.73453108290433,,,0,19,0.0,16,2722027,1000000000,12.0,-581.0914327523515,2.99792458E8,20,-94109.05144468656,3.4028234663852886E38,1.57542003E9,,,,1,,1,33.93330383300781,1.57542003E9
Raw,45138864,174779000000,,,-1268818448221093648,0.0,36.73453108290433,,,0,20,0.0,16,3778351,1000000000,12.0,-141.6527474654469,2.99792458E8,20,-16250.15626394581,3.4028234663852886E38,1.57542003E9,,,,1,,1,33.93330383300781,1.57542003E9
Raw,45138864,174779000000,,,-1268818448221093648,0.0,36.73453108290433,,,0,24,0.0,16431,553022929471246,77,22.165882110595703,-425.86186204551586,1.1784242328304328,20,-72936.00520685325,3.4028234663852886E38,1.57542003E9,,,,1,,1,33.93330383300781,1.57542003E9
Raw,45138864,174779000000,,,-1268818448221093648,0.0,36.73453108290433,,,0,28,0.0,16431,553022922691499,47,28.137727737426758,467.7450089698975,0.9086576619818127,20,68751.39606855143,3.4028234663852886E38,1.57542003E9,,,,0,,1,33.93330383300781,1.57542003E9
Raw,45138865,174779000000,,,-1268818448221093648,0.0,36.73453108290433,,,0,30,0.0,16,14910242,1000000000,12.0,467.2863954349266,2.99792458E8,20,51398.93186087822,3.4028234663852886E38,1.57542003E9,,,,0,,1,33.93330383300781,1.57542003E9
Raw,45138865,174779000000,,,-1268818448221093648,0.0,36.73453108290433,,,0,2,0.0,16,13810290,1000000000,12.0,406.9434402437473,2.99792458E8,20,43931.87899277641,3.4028234663852886E38,1.59975002E9,,,,0,,3,48.423789978027344,1.59975002E9
Raw,45138865,174779000000,,,-1268818448221093648,0.0,36.73453108290433,,,0,13,0.0,16,13586801,1000000000,15.49898910522461,-309.54416378585984,2.99792458E8,20,-40162.35345692696,3.4028234663852886E38,1.60087501E9,,,,1,,3,48.423789978027344,1.60087501E9
Raw,45138866,174779000000,,,-1268818448221093648,0.0,36.73453108290433,,,0,12,0.0,32995,45404932473640,113,26.033781051635742,332.3043941693361,1.0050293358668476,20,54364.227321973376,3.4028234663852886E38,1.60143744E9,,,,0,,3,48.423789978027344,1.60143744E9
Raw,45138866,174779000000,,,-1268818448221093648,0.0,36.73453108290433,,,0,11,0.0,16,19904050,1000000000,12.357135772705078,571.5305538836596,2.99792458E8,20,87469.207418365,3.4028234663852886E38,1.602E9,,,,1,,3,48.423789978027344,1.602E9
Raw,45138866,174779000000,,,-1268818448221093648,0.0,36.73453108290433,,,0,21,0.0,17,793044,182,20.134437561035156,-198.23403045081773,1.268394995051671,20,-22658.22780232436,3.4028234663852886E38,1.60424998E9,,,,1,,3,48.423789978027344,1.60424998E9
Raw,45138867,174779000000,,,-1268818448221093648,0.0,36.73453108290433,,,0,3,0.0,99,933592468,219,17.852828979492188,-393.8776578760758,1.3731189343710293,20,-65025.77327701748,3.4028234663852886E38,1.60481254E9,,,,0,,3,48.423789978027344,1.60481254E9
Raw,45138867,174779000000,,,-1268818448221093648,0.0,36.73453108290433,,,0,5,0.0,16,2406589,1000000000,12.0,-95.92466489397157,2.99792458E8,20,-10308.360449232343,3.4028234663852886E38,1.56109798E9,,,,0,,5,52.642974853515625,1.56109798E9
Raw,45138868,174779000000,,,-1268818448221093648,0.0,36.73453108290433,,,0,10,0.0,16,3436704,1000000000,12.593698501586914,89.1202217377903,2.99792458E8,20,9600.780291198133,3.4028234663852886E38,1.56109798E9,,,,0,,5,52.642974853515625,1.56109798E9
Raw,45138868,174779000000,,,-1268818448221093648,0.0,36.73453108290433,,,0,12,0.0,16,12689361,1000000000,13.495080947875977,-14.612413357450457,2.99792458E8,20,-2066.8619493072474,3.4028234663852886E38,1.56109798E9,,,,1,,5,52.642974853515625,1.56109798E9
Raw,45138868,174779000000,,,-1268818448221093648,0.0,36.73453108290433,,,0,20,0.0,17,611879,39,21.97411346435547,-451.86057336533304,1.1886921053963126,20,-49731.13392419589,3.4028234663852886E38,1.56109798E9,,,,0,,5,52.642974853515625,1.56109798E9
Raw,45138868,174779000000,,,-1268818448221093648,0.0,36.73453108290433,,,0,23,0.0,16,6824940,1000000000,12.0,-14.237703374901315,2.99792458E8,22,-32.35054894784491,3.4028234663852886E38,1.56109798E9,,,,0,,5,52.642974853515625,1.56109798E9
Raw,45138869,174779000000,,,-1268818448221093648,0.0,36.73453108290433,,,0,25,0.0,16397,553008918919678,47,25.776020050048828,368.59607552395505,299.7958654887491,20,50554.298722241656,3.4028234663852886E38,1.56109798E9,,,,0,,5,52.642974853515625,1.56109798E9
Raw,45138869,174779000000,,,-1268818448221093648,0.0,36.73453108290433,,,0,1,0.0,19490,553022908727235,69,23.558053970336914,410.115085482847,1.1149665596882379,20,57772.90221712753,3.4028234663852886E38,1.57542003E9,,,,1,,6,33.93330383300781,1.57542003E9
Raw,45138869,174779000000,,,-1268818448221093648,0.0,36.73453108290433,,,0,4,0.0,18432,553022910847097,1000000000,15.952592849731445,455.9561940007661,2.99792458E8,20,48575.77164235087,3.4028234663852886E38,1.57542003E9,,,,0,,6,33.93330383300781,1.57542003E9
Raw,45138870,174779000000,,,-1268818448221093648,0.0,36.73453108290433,,,0,5,0.0,18432,553022917223459,1000000000,17.284698486328125,-420.0829429648777,2.99792458E8,20,-45386.40371892487,3.4028234663852886E38,1.57542003E9,,,,1,,6,33.93330383300781,1.57542003E9
Raw,45138870,174779000000,,,-1268818448221093648,0.0,36.73453108290433,,,0,9,0.0,18432,553022927821229,1000000000,16.49378204345703,96.04356154355139,2.99792458E8,20,9828.664416965481,3.4028234663852886E38,1.57542003E9,,,,1,,6,33.93330383300781,1.57542003E9
Raw,45138870,174779000000,,,-1268818448221093648,0.0,36.73453108290433,,,0,25,0.0,18432,553022904575526,1000000000,12.0,-602.0701390509239,2.99792458E8,20,-64538.56013478548,3.4028234663852886E38,1.57542003E9,,,,0,,6,33.93330383300781,1.57542003E9
Raw,45138871,174779000000,,,-1268818448221093648,0.0,36.73453108290433,,,0,31,0.0,18432,553022921030065,1000000000,14.49057388305664,103.08565314845208,2.99792458E8,20,10758.778628971748,3.4028234663852886E38,1.57542003E9,,,,1,,6,33.93330383300781,1.57542003E9
NMEA,$GPGSV,3,1,11,15,81,197,21,13,54,124,,24,49,290,23,28,29,046,29*77
,1584783404731
NMEA,$GPGSV,3,2,11,17,29,086,27,20,26,292,,19,25,114,,12,24,212,*7E
,1584783404731
NMEA,$GPGSV,3,3,11,10,12,321,,30,02,081,,05,02,180,*4D
,1584783404731
NMEA,$GLGSV,2,1,08,77,57,276,17,67,57,307,19,66,55,185,,76,50,029,27*60
,1584783404731
NMEA,$GLGSV,2,2,08,85,12,042,20,75,06,052,14,68,10,332,,86,08,094,*67
,1584783404731
NMEA,$BDGSV,2,1,06,223,76,003,,220,31,309,24,225,30,062,26,205,15,115,*62
,1584783404732
NMEA,$BDGSV,2,2,06,210,09,047,17,212,08,040,13*6E
,1584783404732
NMEA,$GAGSV,2,1,08,109,71,189,16,131,69,042,14,105,46,307,17,104,22,149,16*6F
,1584783404732
NMEA,$GAGSV,2,2,08,101,17,050,25,125,04,232,,126,00,055,,124,54,236,*61
,1584783404732
NMEA,$GPGSA,A,3,15,17,24,28,,,,,,,,,3.1,1.9,2.5*31
,1584783404732
NMEA,$GNGSA,A,3,15,17,24,28,,,,,,,,,3.1,1.9,2.5*2F
,1584783404732
NMEA,$GNGSA,A,3,67,76,85,,,,,,,,,,3.1,1.9,2.5*2C
,1584783404732
NMEA,$QZGSA,A,3,,,,,,,,,,,,,3.1,1.9,2.5*23
,1584783404732
NMEA,$IMGSA,A,3,,,,,,,,,,,,,3.1,1.9,2.5*2C
,1584783404732
NMEA,$BDGSA,A,3,220,225,,,,,,,,,,,3.1,1.9,2.5*2B
,1584783404733
NMEA,$GAGSA,A,3,101,105,,,,,,,,,,,3.1,1.9,2.5*2A
,1584783404733
NMEA,$GPRMC,093645.00,A,4122.298381,N,00207.816902,E,000.0,,210320,,,A*72
,1584783404733
Fix,gps,41.371640,2.130282,67.800857,0.000000,16.000000,1584783405000
NMEA,$GPGGA,093646.00,4122.298381,N,00207.816902,E,1,11,1.6,16.5,M,50.6,M,,*59
,1584783405734
Raw,45139841,175779000000,,,-1268818448221093952,0.0,36.91150287840664,,,0,5,0.0,16,14389579,1000000000,12.0,575.5216777073938,2.99792458E8,20,64083.404753382485,3.4028234663852886E38,1.57542003E9,,,,0,,1,33.93330383300781,1.57542003E9
Raw,45139842,175779000000,,,-1268818448221093952,0.0,36.91150287840664,,,0,10,0.0,16,18043789,1000000000,12.0,-531.5223169750543,2.99792458E8,20,-59463.80149107688,3.4028234663852886E38,1.57542003E9,,,,1,,1,33.93330383300781,1.57542003E9
Raw,45139842,175779000000,,,-1268818448221093952,0.0,36.91150287840664,,,0,12,0.0,16,2762273,1000000000,12.07284164428711,-786.2371468087995,2.99792458E8,20,-92033.8837945509,3.4028234663852886E38,1.57542003E9,,,,0,,1,33.93330383300781,1.57542003E9
Raw,45139842,175779000000,,,-1268818448221093952,0.0,36.91150287840664,,,0,13,0.0,16,9593995,1000000000,12.0,297.22901344064667,2.99792458E8,20,46941.56514947315,3.4028234663852886E38,1.57542003E9,,,,1,,1,33.93330383300781,1.57542003E9
Raw,45139842,175779000000,,,-1268818448221093952,0.0,36.91150287840664,,,0,15,0.0,39,3932416595,80,21.646730422973633,37.477682676699715,1.2022997924322363,20,3541.0560082721663,3.4028234663852886E38,1.57542003E9,,,,1,,1,33.93330383300781,1.57542003E9
Raw,45139842,175779000000,,,-1268818448221093952,0.0,36.91150287840664,,,0,17,0.0,16431,553023923231694,63,24.684566497802734,-254.4504181360412,1.064039714403901,20,-42381.20277729215,3.4028234663852886E38,1.57542003E9,,,,0,,1,33.93330383300781,1.57542003E9
Raw,45139843,175779000000,,,-1268818448221093952,0.0,36.91150287840664,,,0,19,0.0,16,2723967,1000000000,13.384208679199219,-581.462795198624,2.99792458E8,20,-94690.779160113,3.4028234663852886E38,1.57542003E9,,,,1,,1,33.93330383300781,1.57542003E9
Raw,45139843,175779000000,,,-1268818448221093952,0.0,36.91150287840664,,,0,20,0.0,16,3778819,1000000000,12.0,-141.83839460612666,2.99792458E8,20,-16391.662060392286,3.4028234663852886E38,1.57542003E9,,,,1,,1,33.93330383300781,1.57542003E9
Raw,45139843,175779000000,,,-1268818448221093952,0.0,36.91150287840664,,,0,24,0.0,16431,553023929472669,79,21.919898986816406,-425.30587493225926,1.1894861201256175,20,-73362.80674602147,3.4028234663852886E38,1.57542003E9,,,,1,,1,33.93330383300781,1.57542003E9
Raw,45139843,175779000000,,,-1268818448221093952,0.0,36.91150287840664,,,0,28,0.0,16431,553023922689919,48,28.085567474365234,467.66433579530803,0.9110029610212886,20,69219.24246266685,3.4028234663852886E38,1.57542003E9,,,,0,,1,33.93330383300781,1.57542003E9
Raw,45139844,175779000000,,,-1268818448221093952,0.0,36.91150287840664,,,0,30,0.0,16,14908680,1000000000,12.0,467.10074829424684,2.99792458E8,20,51865.80985637172,3.4028234663852886E38,1.57542003E9,,,,1,,1,33.93330383300781,1.57542003E9
Raw,45139844,175779000000,,,-1268818448221093952,0.0,36.91150287840664,,,0,2,0.0,16,13808929,1000000000,12.0,406.57814447473584,2.99792458E8,20,44338.469628144274,3.4028234663852886E38,1.59975002E9,,,,0,,3,46.381561279296875,1.59975002E9
Raw,45139844,175779000000,,,-1268818448221093952,0.0,36.91150287840664,,,0,13,0.0,16,13587833,1000000000,15.526021957397461,-310.8555203830315,2.99792458E8,20,-40472.15235960971,3.4028234663852886E38,1.60087501E9,,,,1,,3,46.381561279296875,1.60087501E9
Raw,45139844,175779000000,,,-1268818448221093952,0.0,36.91150287840664,,,0,12,0.0,32995,45405932472579,110,26.36081314086914,332.8760932950497,0.9903228890118507,20,54696.959131779025,3.4028234663852886E38,1.60143744E9,,,,0,,3,46.381561279296875,1.60143744E9
Raw,45139845,175779000000,,,-1268818448221093952,0.0,36.91150287840664,,,0,11,0.0,16,19902147,1000000000,12.0,571.4393151475481,2.99792458E8,20,88040.04970881934,3.4028234663852886E38,1.602E9,,,,0,,3,46.381561279296875,1.602E9
Raw,45139845,175779000000,,,-1268818448221093952,0.0,36.91150287840664,,,0,21,0.0,17,793680,181,20.223995208740234,-198.31576018155943,1.2643676735289562,20,-22856.39486644112,3.4028234663852886E38,1.60424998E9,,,,1,,3,46.381561279296875,1.60424998E9
Raw,45139846,175779000000,,,-1268818448221093952,0.0,36.91150287840664,,,0,3,0.0,99,1933593627,216,18.02302360534668,-393.91211523962033,1.3654654258627215,20,-65419.36688130207,3.4028234663852886E38,1.60481254E9,,,,0,,3,46.381561279296875,1.60481254E9
Raw,45139846,175779000000,,,-1268818448221093952,0.0,36.91150287840664,,,0,5,0.0,16,2406865,1000000000,12.0,-96.29937594159748,2.99792458E8,20,-10404.959604011896,3.4028234663852886E38,1.56109798E9,,,,1,,5,51.326629638671875,1.56109798E9
Raw,45139846,175779000000,,,-1268818448221093952,0.0,36.91150287840664,,,0,10,0.0,16,3436410,1000000000,14.079349517822266,89.37267049325476,2.99792458E8,20,9687.829107774598,3.4028234663852886E38,1.56109798E9,,,,1,,5,51.326629638671875,1.56109798E9
Raw,45139846,175779000000,,,-1268818448221093952,0.0,36.91150287840664,,,0,12,0.0,16,12689418,1000000000,12.896598815917969,-14.237703374901315,2.99792458E8,20,-2081.0125613544687,3.4028234663852886E38,1.56109798E9,,,,0,,5,51.326629638671875,1.56109798E9
Raw,45139846,175779000000,,,-1268818448221093952,0.0,36.91150287840664,,,0,20,0.0,17,613393,40,21.59467315673828,-452.1412423947984,1.2057553008660236,20,-50182.28029242855,3.4028234663852886E38,1.56109798E9,,,,0,,5,51.326629638671875,1.56109798E9
Raw,45139847,175779000000,,,-1268818448221093952,0.0,36.91150287840664,,,0,23,0.0,16,6824984,1000000000,14.003885269165039,-13.932952959749073,2.99792458E8,20,-46.83408643837916,3.4028234663852886E38,1.56109798E9,,,,0,,5,51.326629638671875,1.56109798E9
Raw,45139847,175779000000,,,-1268818448221093952,0.0,36.91150287840664,,,0,25,0.0,16397,553009918918460,27,26.546422958374023,368.2299276935305,0.9831355512907094,20,50922.971075892805,3.4028234663852886E38,1.56109798E9,,,,0,,5,51.326629638671875,1.56109798E9
Raw,45139847,175779000000,,,-1268818448221093952,0.0,36.91150287840664,,,0,1,0.0,19490,553023908725873,73,22.81892204284668,410.1482136305872,1.1482042772007466,20,58183.03282637879,3.4028234663852886E38,1.57542003E9,,,,0,,6,33.93330383300781,1.57542003E9
